[
  {
    "id": "s001",
    "name": "哈尔滨冰雪大世界",
    "province": "黑龙江",
    "city": "哈尔滨",
    "category": "冰雪",
    "location": "松北区太阳岛西侧",
    "highlight": "世界最大冰雪主题乐园",
    "description": "每年冬季开放的大型冰雪艺术精品工程，用松花江天然冰建造，夜晚五彩灯光下如梦似幻，是哈尔滨冰雪旅游的名片。",
    "imageName": "scenic_icesnow",
    "imageMatchType": "exact",
    "latitude": 45.785,
    "longitude": 126.5148
  },
  {
    "id": "s002",
    "name": "中央大街",
    "province": "黑龙江",
    "city": "哈尔滨",
    "category": "城市",
    "location": "道里区中央大街",
    "highlight": "亚洲最长步行街",
    "description": "始建于1900年，全长1450米，铺设方石路面，汇集欧式建筑71栋，有小巴黎之称，是哈尔滨最繁华的商业街。",
    "imageName": "scenic_city",
    "imageMatchType": "exact",
    "latitude": 45.7711,
    "longitude": 126.6172
  },
  {
    "id": "s003",
    "name": "太阳岛",
    "province": "黑龙江",
    "city": "哈尔滨",
    "category": "自然",
    "location": "松北区太阳岛风景区",
    "highlight": "松花江上的明珠",
    "description": "松花江北岸的江心沙滩岛，四季景色各异，夏季绿树成荫，冬季雪博会在此举办，是国家5A级景区。",
    "imageName": "scenic_nature",
    "latitude": 45.79,
    "longitude": 126.53
  },
  {
    "id": "s004",
    "name": "圣索菲亚教堂",
    "province": "黑龙江",
    "city": "哈尔滨",
    "category": "人文",
    "location": "道里区透笼街",
    "highlight": "远东最大东正教堂",
    "description": "建于1907年的拜占庭式建筑，洋葱头穹顶高48米，是哈尔滨的标志性建筑，现为哈尔滨建筑艺术馆。",
    "imageName": "scenic_culture",
    "latitude": 45.77,
    "longitude": 126.628
  },
  {
    "id": "s005",
    "name": "镜泊湖",
    "province": "黑龙江",
    "city": "牡丹江",
    "category": "湖泊",
    "location": "宁安市镜泊湖风景区",
    "highlight": "中国最大火山堰塞湖",
    "description": "约万年前火山喷发堵塞牡丹江河道形成，湖面如镜，吊水楼瀑布壮观，冬季可观冬捕和冰瀑跳水表演。",
    "imageName": "scenic_lake",
    "latitude": 43.85,
    "longitude": 128.85
  },
  {
    "id": "s006",
    "name": "五大连池",
    "province": "黑龙江",
    "city": "黑河",
    "category": "火山",
    "location": "五大连池市",
    "highlight": "世界地质公园",
    "description": "由14座火山和5个堰塞湖组成，最近一次喷发在1719-1721年，有天然火山博物馆之称，矿泉水驰名中外。",
    "imageName": "scenic_volcano",
    "imageMatchType": "exact",
    "latitude": 48.75,
    "longitude": 126.1
  },
  {
    "id": "s007",
    "name": "漠河北极村",
    "province": "黑龙江",
    "city": "大兴安岭",
    "category": "自然",
    "location": "漠河市北极镇",
    "highlight": "中国最北端",
    "description": "中国纬度最高的村庄，每年夏至前后可观测到北极光和极昼现象，冬季最低气温可达零下52度，是找北的终极目的地。",
    "imageName": "scenic_nature",
    "latitude": 53.48,
    "longitude": 122.35
  },
  {
    "id": "s008",
    "name": "雪乡",
    "province": "黑龙江",
    "city": "牡丹江",
    "category": "冰雪",
    "location": "海林市双峰林场",
    "highlight": "中国雪量最大的地方",
    "description": "年积雪期长达7个月，积雪深达2米，雪质粘度高，随物赋形如蘑菇、如奶油蛋糕，被誉为中国雪乡。",
    "imageName": "scenic_snowvillage",
    "imageMatchType": "exact",
    "latitude": 44.07,
    "longitude": 128.97
  },
  {
    "id": "s009",
    "name": "扎龙自然保护区",
    "province": "黑龙江",
    "city": "齐齐哈尔",
    "category": "湿地",
    "location": "齐齐哈尔市铁锋区",
    "highlight": "丹顶鹤的故乡",
    "description": "世界最大的芦苇湿地之一，是丹顶鹤等珍稀水禽的繁殖栖息地，全世界约2000只野生丹顶鹤中有400多只在此栖息。",
    "imageName": "scenic_wetland",
    "latitude": 47.17,
    "longitude": 124.28
  },
  {
    "id": "s010",
    "name": "亚布力滑雪场",
    "province": "黑龙江",
    "city": "哈尔滨",
    "category": "冰雪",
    "location": "尚志市亚布力镇",
    "highlight": "亚洲最大滑雪场",
    "description": "国家AAAA级景区，拥有多条高山滑雪道，最长雪道5000米，落差超过800米，是中国滑雪运动的发祥地。",
    "imageName": "scenic_icesnow",
    "latitude": 44.65,
    "longitude": 128.4
  },
  {
    "id": "s011",
    "name": "松花江畔",
    "province": "黑龙江",
    "city": "哈尔滨",
    "category": "自然",
    "location": "哈尔滨市道里区沿江",
    "highlight": "冬泳与冰灯胜地",
    "description": "哈尔滨的母亲河，冬季江面结冰形成天然冰场，沿岸可赏冰灯、看冬泳，夏季则是纳凉避暑的好去处。",
    "imageName": "scenic_nature",
    "latitude": 45.775,
    "longitude": 126.6
  },
  {
    "id": "s012",
    "name": "哈尔滨极地馆",
    "province": "黑龙江",
    "city": "哈尔滨",
    "category": "自然",
    "location": "松北区太阳岛",
    "highlight": "世界首个极地演艺游乐园",
    "description": "以极地动物展示和表演为主，拥有白鲸、企鹅、北极熊等极地动物，白鲸表演\"海洋之心\"闻名全国。",
    "imageName": "scenic_nature",
    "latitude": 45.79,
    "longitude": 126.535
  },
  {
    "id": "s013",
    "name": "大兴安岭",
    "province": "黑龙江",
    "city": "大兴安岭",
    "category": "森林",
    "location": "大兴安岭地区",
    "highlight": "中国最大原始森林",
    "description": "绵延1200公里，是中国最大的原始林区，落叶松、白桦林交织，秋季五花山色彩斑斓，是天然的氧吧。",
    "imageName": "scenic_forest",
    "latitude": 51.5,
    "longitude": 122.0
  },
  {
    "id": "s014",
    "name": "小兴安岭",
    "province": "黑龙江",
    "city": "伊春",
    "category": "森林",
    "location": "伊春市",
    "highlight": "红松的故乡",
    "description": "与大兴安岭平行，伊春是其腹地，拥有世界面积最大的红松原始林，林海雪原风光壮美，负氧离子含量极高。",
    "imageName": "scenic_forest",
    "latitude": 47.72,
    "longitude": 128.84
  },
  {
    "id": "s015",
    "name": "兴凯湖",
    "province": "黑龙江",
    "city": "鸡西",
    "category": "湖泊",
    "location": "密山市兴凯湖",
    "highlight": "中俄界湖",
    "description": "中国最大的淡水界湖，面积4380平方公里，湖水清澈，盛产大白鱼，湖畔湿地是珍稀鸟类的栖息地。",
    "imageName": "scenic_lake",
    "latitude": 45.35,
    "longitude": 132.4
  },
  {
    "id": "s016",
    "name": "哈尔滨老道外",
    "province": "黑龙江",
    "city": "哈尔滨",
    "category": "人文",
    "location": "道外区北十八道街",
    "highlight": "中华巴洛克建筑群",
    "description": "保存着中国面积最大的中华巴洛克建筑群，中西合璧的建筑风格独特，是哈尔滨民俗文化的活化石。",
    "imageName": "scenic_culture",
    "latitude": 45.785,
    "longitude": 126.645
  },
  {
    "id": "s017",
    "name": "黑龙江黑河",
    "province": "黑龙江",
    "city": "黑河",
    "category": "城市",
    "location": "黑河市区",
    "highlight": "中俄边境城市",
    "description": "隔黑龙江与俄罗斯布拉戈维申斯克相望，是中俄边贸重镇，夏季可乘船游览两国风光，冬季可看冰上汽车拉力赛。",
    "imageName": "scenic_city",
    "latitude": 50.24,
    "longitude": 127.5
  },
  {
    "id": "s018",
    "name": "五营国家森林公园",
    "province": "黑龙江",
    "city": "伊春",
    "category": "森林",
    "location": "伊春市五营区",
    "highlight": "原始红松母树林",
    "description": "拥有世界上保存最完好的红松原始林，天赐湖碧波荡漾，少奇号森林小火车穿行林间，空气中满是松脂清香。",
    "imageName": "scenic_forest",
    "latitude": 47.75,
    "longitude": 128.85
  },
  {
    "id": "s019",
    "name": "汤旺河石林",
    "province": "黑龙江",
    "city": "伊春",
    "category": "自然",
    "location": "伊春市汤旺河区",
    "highlight": "花岗岩石林地质公园",
    "description": "由2亿年前花岗岩风化形成的奇特石林景观，形态各异的巨石散布在茂密林间，是国家地质公园。",
    "imageName": "scenic_nature",
    "latitude": 48.45,
    "longitude": 129.55
  },
  {
    "id": "s020",
    "name": "松花江雾凇",
    "province": "黑龙江",
    "city": "哈尔滨",
    "category": "冰雪",
    "location": "哈尔滨沿江",
    "highlight": "江畔冰雪奇观",
    "description": "冬季松花江蒸发的水汽在树枝上凝结成洁白的雾凇，沿江树木银装素裹，如同置身童话世界。",
    "imageName": "scenic_frosttree",
    "latitude": 45.77,
    "longitude": 126.58
  },
  {
    "id": "s021",
    "name": "龙塔",
    "province": "黑龙江",
    "city": "哈尔滨",
    "category": "城市",
    "location": "南岗区龙塔",
    "highlight": "亚洲第一钢塔",
    "description": "高336米的钢结构电视塔，设有旋转餐厅和观光层，可360度俯瞰哈尔滨全城，夜晚灯光璀璨夺目。",
    "imageName": "scenic_city",
    "latitude": 45.74,
    "longitude": 126.67
  },
  {
    "id": "s022",
    "name": "抚远东极",
    "province": "黑龙江",
    "city": "佳木斯",
    "category": "自然",
    "location": "抚远市",
    "highlight": "中国最东端",
    "description": "中国最早迎接太阳升起的地方，黑瞎子岛中俄共管，是祖国版图鸡冠上的明珠，可观壮丽日出。",
    "imageName": "scenic_nature",
    "latitude": 48.36,
    "longitude": 134.3
  },
  {
    "id": "s023",
    "name": "呼中白山",
    "province": "黑龙江",
    "city": "大兴安岭",
    "category": "山岳",
    "location": "呼中区",
    "highlight": "大兴安岭最高峰",
    "description": "海拔1528米，是大兴安岭最高峰，林海茫茫一望无际，秋季漫山红叶如火，是摄影爱好者的天堂。",
    "imageName": "scenic_mountain",
    "latitude": 51.73,
    "longitude": 123.5
  },
  {
    "id": "s024",
    "name": "冰雪大世界室内乐园",
    "province": "黑龙江",
    "city": "哈尔滨",
    "category": "冰雪",
    "location": "松北区",
    "highlight": "四季冰雪体验",
    "description": "哈尔滨打造的室内冰雪主题乐园，即使夏季也能体验冰雕冰滑梯的乐趣，是全年可玩的冰雪项目。",
    "imageName": "scenic_icesnow",
    "latitude": 45.786,
    "longitude": 126.52
  },
  {
    "id": "s025",
    "name": "长白山天池",
    "province": "吉林",
    "city": "延边",
    "category": "山岳",
    "location": "安图县长白山",
    "highlight": "中国最深火山湖",
    "description": "海拔2189米的火山口湖，最深处373米，湖水碧蓝如玉，常年云雾缭绕，是中朝两国界湖，传说中有水怪出没。",
    "imageName": "scenic_mountain",
    "imageMatchType": "exact",
    "latitude": 42.004,
    "longitude": 128.055
  },
  {
    "id": "s026",
    "name": "长白山瀑布",
    "province": "吉林",
    "city": "延边",
    "category": "山岳",
    "location": "长白山北坡",
    "highlight": "落差68米的壮观瀑布",
    "description": "天池水从北侧缺口奔流而下，形成高达68米的瀑布，水声轰鸣，水雾弥漫，是长白山最壮观的景观之一。",
    "imageName": "scenic_mountain",
    "latitude": 42.03,
    "longitude": 128.07
  },
  {
    "id": "s027",
    "name": "雾凇岛",
    "province": "吉林",
    "city": "吉林市",
    "category": "冰雪",
    "location": "龙潭区乌拉街镇",
    "highlight": "中国四大自然奇观",
    "description": "松花江上的小岛，因独特的地理和气候条件形成大面积雾凇，银装素裹的树木如珊瑚玉树，是冬季摄影圣地。",
    "imageName": "scenic_frosttree",
    "latitude": 43.88,
    "longitude": 126.55
  },
  {
    "id": "s028",
    "name": "净月潭",
    "province": "吉林",
    "city": "长春",
    "category": "森林",
    "location": "南关区净月大街",
    "highlight": "亚洲最大人工森林",
    "description": "因形如弯月而得名，景区内人工林面积达96平方公里，有\"台湾日月潭姊妹潭\"之称，四季景色优美。",
    "imageName": "scenic_forest",
    "latitude": 43.79,
    "longitude": 125.43
  },
  {
    "id": "s029",
    "name": "伪满皇宫",
    "province": "吉林",
    "city": "长春",
    "category": "人文",
    "location": "宽城区光复北路",
    "highlight": "末代皇帝溥仪故居",
    "description": "溥仪充当伪满洲国傀儡皇帝时的宫殿，现为博物院，是了解伪满洲国历史的重要场所，国家一级博物馆。",
    "imageName": "scenic_culture",
    "latitude": 43.88,
    "longitude": 125.34
  },
  {
    "id": "s030",
    "name": "查干湖冬捕",
    "province": "吉林",
    "city": "松原",
    "category": "湖泊",
    "location": "前郭县查干湖",
    "highlight": "千年渔猎文化",
    "description": "每年12月至次年1月举行传统冬捕，马拉绞盘、冰下走网，单网最高捕鱼量达34万斤，是非物质文化遗产。",
    "imageName": "scenic_lake",
    "latitude": 45.18,
    "longitude": 124.15
  },
  {
    "id": "s031",
    "name": "松花湖",
    "province": "吉林",
    "city": "吉林市",
    "category": "湖泊",
    "location": "丰满区松花湖",
    "highlight": "东北最大人工湖",
    "description": "丰满大坝拦截松花江形成，水域面积554平方公里，湖形如蛟龙，周围群山环绕，春赏杜鹃秋观红叶。",
    "imageName": "scenic_lake",
    "latitude": 43.62,
    "longitude": 126.75
  },
  {
    "id": "s032",
    "name": "长影世纪城",
    "province": "吉林",
    "city": "长春",
    "category": "城市",
    "location": "南关区净月大街",
    "highlight": "东方好莱坞",
    "description": "中国第一家世界级电影主题娱乐园，以长春电影制片厂为依托，有4D影院、特效电影等高科技娱乐设施。",
    "imageName": "scenic_city",
    "latitude": 43.78,
    "longitude": 125.44
  },
  {
    "id": "s033",
    "name": "长白山温泉",
    "province": "吉林",
    "city": "延边",
    "category": "自然",
    "location": "长白山景区内",
    "highlight": "聚龙温泉群",
    "description": "长白山北坡聚龙泉温泉群，泉水最高温度达82度，含多种矿物质，可以煮温泉蛋，冬季蒸汽蒸腾如仙境。",
    "imageName": "scenic_nature",
    "latitude": 42.02,
    "longitude": 128.08
  },
  {
    "id": "s034",
    "name": "望天鹅",
    "province": "吉林",
    "city": "白山",
    "category": "山岳",
    "location": "长白县十五道沟",
    "highlight": "火山岩柱状节理",
    "description": "望天鹅火山形成的峡谷中，遍布壮观的柱状节理玄武岩，石壁上数十条瀑布飞流直下，是地质奇观。",
    "imageName": "scenic_mountain",
    "latitude": 41.41,
    "longitude": 127.95
  },
  {
    "id": "s035",
    "name": "向海自然保护区",
    "province": "吉林",
    "city": "白城",
    "category": "湿地",
    "location": "通榆县向海乡",
    "highlight": "鹤乡",
    "description": "科尔沁草原东端的大型湿地，被誉为\"东方白鹳之乡\"，六类珍稀鹤类在此栖息，是国际重要湿地。",
    "imageName": "scenic_wetland",
    "latitude": 44.67,
    "longitude": 122.35
  },
  {
    "id": "s036",
    "name": "高句丽王城",
    "province": "吉林",
    "city": "通化",
    "category": "人文",
    "location": "集安市",
    "highlight": "世界文化遗产",
    "description": "高句丽政权的都城遗址和王陵，好太王碑高6.39米，将军坟被誉为\"东方金字塔\"，2004年列入世界文化遗产。",
    "imageName": "scenic_culture",
    "latitude": 41.12,
    "longitude": 126.18
  },
  {
    "id": "s037",
    "name": "防川风景区",
    "province": "吉林",
    "city": "延边",
    "category": "自然",
    "location": "珲春市防川村",
    "highlight": "一眼望三国",
    "description": "中俄朝三国交界处，站在龙虎阁上可同时远眺三国风光，图们江从此入海，是独特的地缘风景。",
    "imageName": "scenic_nature",
    "latitude": 42.4,
    "longitude": 130.65
  },
  {
    "id": "s038",
    "name": "吉林北大湖滑雪场",
    "province": "吉林",
    "city": "吉林市",
    "category": "冰雪",
    "location": "永吉县北大湖镇",
    "highlight": "亚洲一流滑雪场",
    "description": "自然条件优越，雪质好，山体落差870米，曾承办多次全国冬运会和亚冬会比赛，是竞技滑雪的理想场所。",
    "imageName": "scenic_icesnow",
    "latitude": 43.35,
    "longitude": 126.41
  },
  {
    "id": "s039",
    "name": "延吉帽儿山",
    "province": "吉林",
    "city": "延边",
    "category": "山岳",
    "location": "延吉市",
    "highlight": "延边地标",
    "description": "海拔517米，因山形似帽而得名，是延吉市的标志性景观，登顶可俯瞰延吉全城和布尔哈通河。",
    "imageName": "scenic_mountain",
    "latitude": 42.87,
    "longitude": 129.5
  },
  {
    "id": "s040",
    "name": "六鼎山",
    "province": "吉林",
    "city": "延边",
    "category": "人文",
    "location": "敦化市",
    "highlight": "世界最大尼众道场",
    "description": "国家5A级景区，有世界最大的尼众道场——正觉寺，金鼎大佛高48米，是东北亚旅游黄金大通道上的重要节点。",
    "imageName": "scenic_culture",
    "latitude": 43.32,
    "longitude": 128.22
  },
  {
    "id": "s041",
    "name": "老里克湖",
    "province": "吉林",
    "city": "延边",
    "category": "湿地",
    "location": "和龙市",
    "highlight": "高山湿地秘境",
    "description": "长白山余脉中的高山湿地，海拔1470米，湿地面积广阔，冬季岳桦林雾凇壮观，被称为\"离天池最近的雪岭\"。",
    "imageName": "scenic_wetland",
    "latitude": 42.35,
    "longitude": 128.9
  },
  {
    "id": "s042",
    "name": "红叶谷",
    "province": "吉林",
    "city": "吉林市",
    "category": "森林",
    "location": "蛟河市庆岭镇",
    "highlight": "中国十大秋色之一",
    "description": "每年9月下旬至10月中旬，长达百里的山谷层林尽染，红叶如火似霞，被《中国国家地理》评为中国十大秋色之一。",
    "imageName": "scenic_forest",
    "latitude": 43.72,
    "longitude": 127.15
  },
  {
    "id": "s043",
    "name": "敦化雁鸣湖",
    "province": "吉林",
    "city": "延边",
    "category": "湿地",
    "location": "敦化市雁鸣湖镇",
    "highlight": "湿地水乡",
    "description": "牡丹江上游的大型湿地湖泊群，水草丰美，大雁等候鸟在此停歇，秋季金色芦苇荡中雁阵南飞，景色壮美。",
    "imageName": "scenic_wetland",
    "latitude": 43.4,
    "longitude": 128.25
  },
  {
    "id": "s044",
    "name": "长春世界雕塑园",
    "province": "吉林",
    "city": "长春",
    "category": "人文",
    "location": "南关区人民大街",
    "highlight": "世界级雕塑艺术园",
    "description": "收藏展示来自216个国家和地区的近500件雕塑作品，是世界上最大的城市雕塑主题公园之一。",
    "imageName": "scenic_culture",
    "latitude": 43.83,
    "longitude": 125.36
  },
  {
    "id": "s045",
    "name": "松岭雪村",
    "province": "吉林",
    "city": "延边",
    "category": "冰雪",
    "location": "安图县松岭",
    "highlight": "原生态雪村",
    "description": "长白山脚下的小山村，冬季积雪覆盖的木屋炊烟袅袅，保持着原生态的东北雪村风貌，比雪乡更宁静纯朴。",
    "imageName": "scenic_snowvillage",
    "latitude": 42.25,
    "longitude": 128.2
  },
  {
    "id": "s046",
    "name": "查干湖",
    "province": "吉林",
    "city": "松原",
    "category": "湖泊",
    "location": "前郭县",
    "highlight": "圣水湖",
    "description": "蒙古语意为\"白色圣洁的湖\"，面积420平方公里，盛产胖头鱼，夏季荷花盛开碧波万顷，是吉林西部的明珠。",
    "imageName": "scenic_lake",
    "latitude": 45.2,
    "longitude": 124.08
  },
  {
    "id": "s047",
    "name": "拉法山",
    "province": "吉林",
    "city": "吉林市",
    "category": "山岳",
    "location": "蛟河市拉法街道",
    "highlight": "七十二洞天",
    "description": "花岗岩奇峰怪石密布，大小溶洞72个，古树参天，云雾缭绕，有\"九鼎铁叉山、八宝云光洞\"的传说。",
    "imageName": "scenic_mountain",
    "latitude": 43.68,
    "longitude": 127.3
  },
  {
    "id": "s048",
    "name": "沈阳故宫",
    "province": "辽宁",
    "city": "沈阳",
    "category": "人文",
    "location": "沈河区沈阳路",
    "highlight": "中国两大皇宫之一",
    "description": "清朝入关前的皇宫，始建于1625年，是中国仅存的两大宫殿建筑群之一，融合满、汉、蒙建筑风格，世界文化遗产。",
    "imageName": "scenic_culture",
    "latitude": 41.796,
    "longitude": 123.45
  },
  {
    "id": "s049",
    "name": "大连老虎滩海洋公园",
    "province": "辽宁",
    "city": "大连",
    "category": "海滨",
    "location": "中山区滨海中路",
    "highlight": "中国最大海洋公园",
    "description": "依山傍海，拥有极地馆、珊瑚馆、鸟语林等场馆，海豚表演精彩绝伦，是国家5A级旅游景区。",
    "imageName": "scenic_coast",
    "latitude": 38.87,
    "longitude": 121.6
  },
  {
    "id": "s050",
    "name": "千山",
    "province": "辽宁",
    "city": "鞍山",
    "category": "山岳",
    "location": "千山区千山路",
    "highlight": "东北明珠",
    "description": "因近千座山峰而得名，有\"无峰不奇、无石不峭\"之称，天然弥勒大佛高70米，是东北地区著名的佛道圣地。",
    "imageName": "scenic_mountain",
    "latitude": 41.07,
    "longitude": 122.97
  },
  {
    "id": "s051",
    "name": "本溪水洞",
    "province": "辽宁",
    "city": "本溪",
    "category": "自然",
    "location": "本溪满族自治县",
    "highlight": "世界第一长地下暗河",
    "description": "数十万年溶蚀形成的地下暗河溶洞，水洞长达5800米，乘船穿行其中，钟乳石千姿百态，是亚洲最长的地下暗河。",
    "imageName": "scenic_nature",
    "latitude": 41.3,
    "longitude": 124.08
  },
  {
    "id": "s052",
    "name": "盘锦红海滩",
    "province": "辽宁",
    "city": "盘锦",
    "category": "湿地",
    "location": "大洼区赵圈河镇",
    "highlight": "世界红色海岸线",
    "description": "碱蓬草秋季变红形成壮观的红色海滩，绵延数十公里，被誉为\"世界红色海岸线\"，是全球独一无二的景观。",
    "imageName": "scenic_wetland",
    "imageMatchType": "exact",
    "latitude": 40.85,
    "longitude": 121.83
  },
  {
    "id": "s053",
    "name": "鸭绿江断桥",
    "province": "辽宁",
    "city": "丹东",
    "category": "人文",
    "location": "振兴区江岸路",
    "highlight": "抗美援朝历史见证",
    "description": "始建于1909年，抗美援朝战争中被美军炸断，保留至今的断桥诉说着历史，站在桥头可远眺朝鲜新义州。",
    "imageName": "scenic_culture",
    "latitude": 40.12,
    "longitude": 124.39
  },
  {
    "id": "s054",
    "name": "金石滩",
    "province": "辽宁",
    "city": "大连",
    "category": "海滨",
    "location": "金州区金石滩",
    "highlight": "凝固的动物世界",
    "description": "国家5A级景区，海岸线上分布着奇特的地质景观，恐龙探海、贝多芬头像等天然奇石令人叹为观止。",
    "imageName": "scenic_coast",
    "latitude": 39.02,
    "longitude": 121.98
  },
  {
    "id": "s055",
    "name": "张氏帅府",
    "province": "辽宁",
    "city": "沈阳",
    "category": "人文",
    "location": "沈河区朝阳街",
    "highlight": "少帅府",
    "description": "张作霖和张学良父子的官邸和旧居，中西合璧的建筑群，大青楼、小青楼、赵四小姐楼各具特色，是近代史的缩影。",
    "imageName": "scenic_culture",
    "latitude": 41.798,
    "longitude": 123.458
  },
  {
    "id": "s056",
    "name": "棒棰岛",
    "province": "辽宁",
    "city": "大连",
    "category": "海滨",
    "location": "中山区迎宾路",
    "highlight": "大连最清澈海滩",
    "description": "因海中石柱形似棒棰而得名，海水碧蓝，沙滩洁净，周围山林苍翠，曾为国宾馆所在地，是大连最美的海滨。",
    "imageName": "scenic_coast",
    "latitude": 38.86,
    "longitude": 121.59
  },
  {
    "id": "s057",
    "name": "星海广场",
    "province": "辽宁",
    "city": "大连",
    "category": "城市",
    "location": "沙河口区星海广场",
    "highlight": "亚洲最大城市广场",
    "description": "总面积176万平方米，广场上百年城雕记录大连历史，是市民休闲和城市庆典的重要场所。",
    "imageName": "scenic_city",
    "latitude": 38.87,
    "longitude": 121.58
  },
  {
    "id": "s058",
    "name": "关门山",
    "province": "辽宁",
    "city": "本溪",
    "category": "森林",
    "location": "本溪满族自治县",
    "highlight": "东北小黄山",
    "description": "以枫叶闻名，秋季满山红叶层林尽染，有\"关门山枫叶甲天下\"之说，是辽宁最佳赏枫地。",
    "imageName": "scenic_forest",
    "latitude": 41.25,
    "longitude": 124.13
  },
  {
    "id": "s059",
    "name": "北陵公园",
    "province": "辽宁",
    "city": "沈阳",
    "category": "人文",
    "location": "皇姑区泰山路",
    "highlight": "清太宗皇太极陵寝",
    "description": "清太宗皇太极和孝端文皇后的陵墓——昭陵，是清初关外三陵中规模最大的一座，古松参天，庄严肃穆。",
    "imageName": "scenic_culture",
    "latitude": 41.83,
    "longitude": 123.38
  },
  {
    "id": "s060",
    "name": "虎山长城",
    "province": "辽宁",
    "city": "丹东",
    "category": "人文",
    "location": "振安区虎山镇",
    "highlight": "万里长城东端起点",
    "description": "明长城的东端起点，紧邻中朝边境，城墙蜿蜒于虎山之上，山顶可同时远眺中朝两国风光。",
    "imageName": "scenic_culture",
    "latitude": 40.2,
    "longitude": 124.35
  },
  {
    "id": "s061",
    "name": "大连旅顺",
    "province": "辽宁",
    "city": "大连",
    "category": "人文",
    "location": "旅顺口区",
    "highlight": "军港文化名城",
    "description": "百年军港，甲午战争、日俄战争的重要战场，白玉山塔、万忠墓等遗迹记录着沉重的历史。",
    "imageName": "scenic_culture",
    "latitude": 38.81,
    "longitude": 121.26
  },
  {
    "id": "s062",
    "name": "笔架山",
    "province": "辽宁",
    "city": "锦州",
    "category": "海滨",
    "location": "太和区笔架山",
    "highlight": "天桥奇观",
    "description": "潮落时一条1620米的天然石桥连接海岛与陆地，潮涨则没入海中，天桥时隐时现的奇观令人称奇。",
    "imageName": "scenic_coast",
    "latitude": 40.85,
    "longitude": 121.17
  },
  {
    "id": "s063",
    "name": "医巫闾山",
    "province": "辽宁",
    "city": "锦州",
    "category": "山岳",
    "location": "北镇市",
    "highlight": "东北三大名山",
    "description": "五大镇山之一的北镇名山，自古为帝王祭祀之地，古寺古塔散布其间，苍松翠柏、奇石怪洞令人流连。",
    "imageName": "scenic_mountain",
    "latitude": 41.59,
    "longitude": 121.7
  },
  {
    "id": "s064",
    "name": "凤凰山",
    "province": "辽宁",
    "city": "丹东",
    "category": "山岳",
    "location": "凤城市凤山路",
    "highlight": "辽东第一山",
    "description": "以险峰秀水著称，\"老牛背\"悬崖栈道惊险刺激，玻璃栈道凌空百米，是东北最刺激的登山体验。",
    "imageName": "scenic_mountain",
    "latitude": 40.45,
    "longitude": 124.05
  },
  {
    "id": "s065",
    "name": "兴城古城",
    "province": "辽宁",
    "city": "葫芦岛",
    "category": "人文",
    "location": "兴城市古城区",
    "highlight": "中国四大古城之一",
    "description": "始建于明宣德年间，城墙保存完好，四门楼角楼俱全，是中国保存最完整的四座古城之一。",
    "imageName": "scenic_culture",
    "latitude": 40.62,
    "longitude": 120.72
  },
  {
    "id": "s066",
    "name": "大连森林动物园",
    "province": "辽宁",
    "city": "大连",
    "category": "自然",
    "location": "西岗区滨海西路",
    "highlight": "依山傍海的动物园",
    "description": "坐落于白云山风景区，面朝大海，拥有200余种动物，散养区可近距离接触长颈鹿、斑马等动物。",
    "imageName": "scenic_nature",
    "latitude": 38.87,
    "longitude": 121.52
  },
  {
    "id": "s067",
    "name": "绿江村",
    "province": "辽宁",
    "city": "丹东",
    "category": "自然",
    "location": "宽甸县绿江村",
    "highlight": "北方的香格里拉",
    "description": "鸭绿江畔的边境小村，三面环水，油菜花田、水没地景观独特，随季节变幻出不同的美景。",
    "imageName": "scenic_nature",
    "latitude": 40.5,
    "longitude": 125.2
  },
  {
    "id": "s068",
    "name": "清永陵",
    "province": "辽宁",
    "city": "抚顺",
    "category": "人文",
    "location": "新宾满族自治县",
    "highlight": "清朝祖陵",
    "description": "清太祖努尔哈赤祖辈的陵寝，清朝关外三陵之一，背靠启运山，风水格局讲究，是满族龙兴之地。",
    "imageName": "scenic_culture",
    "latitude": 41.73,
    "longitude": 125.02
  },
  {
    "id": "s069",
    "name": "九门口长城",
    "province": "辽宁",
    "city": "葫芦岛",
    "category": "人文",
    "location": "绥中县李家堡乡",
    "highlight": "水上长城",
    "description": "明长城的重要关隘，城桥跨越九江河，九个水门并列如城门，是中国唯一的水上长城，世界文化遗产。",
    "imageName": "scenic_culture",
    "latitude": 40.18,
    "longitude": 119.85
  },
  {
    "id": "s070",
    "name": "大连圣亚海洋世界",
    "province": "辽宁",
    "city": "大连",
    "category": "海滨",
    "location": "沙河口区中山路",
    "highlight": "海底通道",
    "description": "拥有中国第一条海底通道，长达118米，头顶鲨鱼游过，还有南极企鹅岛和白鲸号潜水表演。",
    "imageName": "scenic_coast",
    "latitude": 38.86,
    "longitude": 121.61
  },
  {
    "id": "s071",
    "name": "赫图阿拉城",
    "province": "辽宁",
    "city": "抚顺",
    "category": "人文",
    "location": "新宾满族自治县",
    "highlight": "后金第一都",
    "description": "努尔哈赤建立后金政权的第一个都城遗址，城内汗宫大衙门、正白旗衙门等建筑再现后金历史。",
    "imageName": "scenic_culture",
    "latitude": 41.73,
    "longitude": 125.03
  },
  {
    "id": "s072",
    "name": "蛇岛",
    "province": "辽宁",
    "city": "大连",
    "category": "自然",
    "location": "旅顺口区蛇岛",
    "highlight": "蝮蛇王国",
    "description": "世界上唯一一座蛇岛，面积仅0.73平方公里却生活着两万余条蝮蛇，是重要的自然保护区和科研基地。",
    "imageName": "scenic_nature",
    "latitude": 38.82,
    "longitude": 121.2
  },
  {
    "id": "s073",
    "name": "本溪关门山枫叶",
    "province": "辽宁",
    "city": "本溪",
    "category": "森林",
    "location": "本溪县小市镇",
    "highlight": "枫叶之都",
    "description": "本溪被称为\"中国枫叶之都\"，每年9-10月漫山遍野的枫叶将山林染成红色海洋，是东北最负盛名的赏枫胜地。",
    "imageName": "scenic_forest",
    "latitude": 41.22,
    "longitude": 124.06
  },
  {
    "id": "s074",
    "name": "大连跨海大桥",
    "province": "辽宁",
    "city": "大连",
    "category": "城市",
    "location": "甘井子区",
    "highlight": "东北最长跨海大桥",
    "description": "全长6.8公里，横跨大连湾，双向六车道，大桥造型优美如海上飘带，夜景灯光璀璨，是大连新地标。",
    "imageName": "scenic_city",
    "latitude": 38.95,
    "longitude": 121.63
  },
  {
    "id": "s075",
    "name": "望儿山",
    "province": "辽宁",
    "city": "营口",
    "category": "山岳",
    "location": "熊岳镇望儿山",
    "highlight": "慈母之山",
    "description": "相传慈母日夜盼儿归化为此山，山虽不高但因母爱传说闻名，是中国以母爱命名的唯一名山。",
    "imageName": "scenic_mountain",
    "latitude": 40.27,
    "longitude": 122.16
  },
  {
    "id": "s076",
    "name": "獐岛",
    "province": "辽宁",
    "city": "丹东",
    "category": "海滨",
    "location": "东港市獐岛",
    "highlight": "北方小海岛",
    "description": "黄海北部的小海岛，渔家风情浓郁，海鲜肥美，日出日落美不胜收，是北方海岛度假的好去处。",
    "imageName": "scenic_coast",
    "latitude": 39.72,
    "longitude": 124.21
  },
  {
    "id": "s077",
    "name": "沈阳世博园",
    "province": "辽宁",
    "city": "沈阳",
    "category": "自然",
    "location": "浑南区世博园路",
    "highlight": "世界园艺博览会举办地",
    "description": "2006年世界园艺博览会举办地，占地246公顷，百合塔、凤之翼等标志建筑宏伟，四季花卉竞相开放。",
    "imageName": "scenic_nature",
    "latitude": 41.75,
    "longitude": 123.65
  },
  {
    "id": "s078",
    "name": "冰峪沟",
    "province": "辽宁",
    "city": "大连",
    "category": "自然",
    "location": "庄河市冰峪沟",
    "highlight": "辽南小桂林",
    "description": "喀斯特地貌形成的北方罕见峡谷，山清水秀，奇峰异石，有\"辽南小桂林\"之美誉，是大连近郊的避暑胜地。",
    "imageName": "scenic_nature",
    "latitude": 39.8,
    "longitude": 122.9
  },
  {
    "id": "s079",
    "name": "抚顺战犯管理所",
    "province": "辽宁",
    "city": "抚顺",
    "category": "人文",
    "location": "顺城区浑河北路",
    "highlight": "改造日本战犯的地方",
    "description": "二战后关押和改造日本战犯和伪满战犯的场所，现为爱国主义教育基地，展示了战犯改造的历史全貌。",
    "imageName": "scenic_culture",
    "latitude": 41.88,
    "longitude": 123.92
  },
  {
    "id": "s080",
    "name": "五女山",
    "province": "辽宁",
    "city": "本溪",
    "category": "山岳",
    "location": "桓仁满族自治县",
    "highlight": "高句丽山城",
    "description": "高句丽第一个都城纥升骨城所在地，山顶天池碧蓝如镜，悬崖峭壁上的古城遗址诉说千年历史，世界文化遗产。",
    "imageName": "scenic_mountain",
    "latitude": 41.3,
    "longitude": 125.35
  },
  {
    "id": "s081",
    "name": "长白山西坡",
    "province": "吉林",
    "city": "白山",
    "category": "山岳",
    "location": "长白山西坡景区",
    "highlight": "高山花园",
    "description": "与北坡不同视角观天池，每年6-7月高山花园万花盛开，鸢尾花、金莲花铺满山坡，是长白山最美的季节。",
    "imageName": "scenic_mountain",
    "latitude": 42.0,
    "longitude": 127.5
  },
  {
    "id": "s082",
    "name": "二道白河",
    "province": "吉林",
    "city": "延边",
    "category": "自然",
    "location": "安图县二道白河镇",
    "highlight": "长白山门户小镇",
    "description": "长白山北坡脚下的旅游小镇，美人松挺拔秀丽，碧泉河清澈见底，是进入长白山的必经之路。",
    "imageName": "scenic_nature",
    "latitude": 42.42,
    "longitude": 128.11
  },
  {
    "id": "s083",
    "name": "长白山大峡谷",
    "province": "吉林",
    "city": "延边",
    "category": "自然",
    "location": "长白山西坡",
    "highlight": "火山峡谷奇观",
    "description": "火山喷发后熔岩冲刷形成的深达百米的峡谷，谷壁火山岩柱排列如管风琴，谷底溪水潺潺，原始森林覆盖。",
    "imageName": "scenic_nature",
    "latitude": 41.96,
    "longitude": 127.52
  },
  {
    "id": "s084",
    "name": "吉林北山",
    "province": "吉林",
    "city": "吉林市",
    "category": "山岳",
    "location": "船营区北山路",
    "highlight": "关东第一名山",
    "description": "吉林市的标志性景区，集佛道儒于一山，庙宇众多，每年农历四月二十八的庙会热闹非凡，是东北最大庙会。",
    "imageName": "scenic_mountain",
    "latitude": 43.86,
    "longitude": 126.53
  },
  {
    "id": "s085",
    "name": "辉南龙湾",
    "province": "吉林",
    "city": "通化",
    "category": "湖泊",
    "location": "辉南县",
    "highlight": "火山口湖群",
    "description": "由十余个火山口湖组成的龙湾群，湖水碧绿深邃，四周原始森林环绕，秋季五花山倒映水中如画。",
    "imageName": "scenic_lake",
    "latitude": 42.55,
    "longitude": 126.38
  },
  {
    "id": "s086",
    "name": "珲春防川",
    "province": "吉林",
    "city": "延边",
    "category": "自然",
    "location": "珲春市防川村",
    "highlight": "图们江入海口",
    "description": "中俄朝三国交界，登上龙虎阁远眺日本海，图们江在此注入太平洋，是中国离海最近却看不到海的地方。",
    "imageName": "scenic_nature",
    "latitude": 42.4,
    "longitude": 130.65
  },
  {
    "id": "s087",
    "name": "通化集安",
    "province": "吉林",
    "city": "通化",
    "category": "自然",
    "location": "集安市",
    "highlight": "东北小江南",
    "description": "鸭绿江畔的边境城市，气候温和有\"东北小江南\"之称，高句丽遗迹遍布，油桃葡萄闻名全国。",
    "imageName": "scenic_nature",
    "latitude": 41.12,
    "longitude": 126.19
  },
  {
    "id": "s088",
    "name": "白山湖",
    "province": "吉林",
    "city": "白山",
    "category": "湖泊",
    "location": "靖宇县",
    "highlight": "长白山天池姊妹湖",
    "description": "白山水电站截江形成的人工湖，群山环绕，碧波浩渺，湖光山色媲美千岛湖，有\"长白山下第一湖\"之称。",
    "imageName": "scenic_lake",
    "latitude": 42.25,
    "longitude": 126.75
  },
  {
    "id": "s089",
    "name": "九台庙香山",
    "province": "吉林",
    "city": "长春",
    "category": "冰雪",
    "location": "九台区庙香山",
    "highlight": "长春近郊滑雪场",
    "description": "距长春市区仅40公里，雪道多样适合各级滑雪者，夏季可玩滑草和山地自行车，是四季运动的好去处。",
    "imageName": "scenic_icesnow",
    "latitude": 43.98,
    "longitude": 125.83
  },
  {
    "id": "s090",
    "name": "辽源龙首山",
    "province": "吉林",
    "city": "辽源",
    "category": "山岳",
    "location": "龙山区龙首山",
    "highlight": "关东名胜",
    "description": "形如巨龙昂首，山上有清代道德碑、古塔遗址，登顶可远眺东辽河谷地，是辽源的城市名片。",
    "imageName": "scenic_mountain",
    "latitude": 42.9,
    "longitude": 125.12
  },
  {
    "id": "s091",
    "name": "大连滨海路",
    "province": "辽宁",
    "city": "大连",
    "category": "海滨",
    "location": "沿海滨海路",
    "highlight": "最美海岸公路",
    "description": "全长32公里的海滨公路，串联老虎滩、棒棰岛、傅家庄等景点，一侧是山一侧是海，是中国最美的海岸公路之一。",
    "imageName": "scenic_coast",
    "latitude": 38.85,
    "longitude": 121.55
  },
  {
    "id": "s092",
    "name": "丹东鸭绿江",
    "province": "辽宁",
    "city": "丹东",
    "category": "自然",
    "location": "丹东市沿江",
    "highlight": "中朝界河",
    "description": "全长795公里的中朝界河，丹东段可乘游船观两岸风光，一边是丹东高楼林立，一边是朝鲜田园风光。",
    "imageName": "scenic_nature",
    "latitude": 40.12,
    "longitude": 124.38
  },
  {
    "id": "s093",
    "name": "沈阳棋盘山",
    "province": "辽宁",
    "city": "沈阳",
    "category": "自然",
    "location": "浑南区棋盘山",
    "highlight": "沈阳后花园",
    "description": "传说仙人在此对弈而得名，秀湖碧波荡漾，冬季可滑雪玩冰，夏季泛舟避暑，是沈阳人的周末去处。",
    "imageName": "scenic_nature",
    "latitude": 41.85,
    "longitude": 123.62
  },
  {
    "id": "s094",
    "name": "营口鲅鱼圈",
    "province": "辽宁",
    "city": "营口",
    "category": "海滨",
    "location": "鲅鱼圈区",
    "highlight": "北方温泉海滨",
    "description": "渤海湾畔的滨海新城，白沙湾海滩细腻，思拉堡温泉品质一流，海鲜与温泉的完美结合让人流连忘返。",
    "imageName": "scenic_coast",
    "latitude": 40.25,
    "longitude": 122.18
  },
  {
    "id": "s095",
    "name": "阜新海棠山",
    "province": "辽宁",
    "city": "阜新",
    "category": "人文",
    "location": "阜新蒙古族自治县",
    "highlight": "藏传佛教摩崖石刻",
    "description": "山上遍布260余尊藏传佛教摩崖石刻造像，是中国保存最完好的摩崖造像群之一，艺术价值极高。",
    "imageName": "scenic_culture",
    "latitude": 42.05,
    "longitude": 121.6
  },
  {
    "id": "s096",
    "name": "辽阳白塔",
    "province": "辽宁",
    "city": "辽阳",
    "category": "人文",
    "location": "白塔区中华大街",
    "highlight": "东北最高古塔",
    "description": "建于辽代的八角十三层密檐式砖塔，高71米，是东北地区现存最高的古塔，已有近千年历史。",
    "imageName": "scenic_culture",
    "latitude": 41.27,
    "longitude": 123.17
  },
  {
    "id": "s097",
    "name": "葫芦岛龙湾海滨",
    "province": "辽宁",
    "city": "葫芦岛",
    "category": "海滨",
    "location": "龙港区望海寺",
    "highlight": "渤海明珠",
    "description": "渤海湾北岸优质海滨浴场，海水清澈，沙滩绵延，周围有碣石宫、止锚湾等景点，是避暑度假胜地。",
    "imageName": "scenic_coast",
    "latitude": 40.74,
    "longitude": 120.81
  },
  {
    "id": "s098",
    "name": "朝阳鸟化石国家地质公园",
    "province": "辽宁",
    "city": "朝阳",
    "category": "自然",
    "location": "朝阳市龙城区",
    "highlight": "世界古生物化石宝库",
    "description": "出土了中华龙鸟、孔子鸟等重要化石，将鸟类起源推前数千万年，被誉为\"世界上第一只鸟飞起的地方\"。",
    "imageName": "scenic_nature",
    "latitude": 41.57,
    "longitude": 120.45
  },
  {
    "id": "s099",
    "name": "铁岭莲花湖",
    "province": "辽宁",
    "city": "铁岭",
    "category": "湿地",
    "location": "铁岭市银州区",
    "highlight": "北方最大莲花湿地",
    "description": "夏季千亩荷花盛开，碧叶红花交相辉映，是东北地区面积最大的自然荷花湿地景观，赵本山家乡的名片。",
    "imageName": "scenic_wetland",
    "latitude": 42.28,
    "longitude": 123.82
  },
  {
    "id": "s100",
    "name": "抚顺赫图阿拉老城",
    "province": "辽宁",
    "city": "抚顺",
    "category": "人文",
    "location": "新宾满族自治县",
    "highlight": "满族文化发祥地",
    "description": "满族文化的发祥地，努尔哈赤在此建立后金政权，至今保留着满族传统民居和民俗文化，是体验满族风情的最佳去处。",
    "imageName": "scenic_culture",
    "latitude": 41.73,
    "longitude": 125.03
  }
]